% program   : Simple_SPP ver.1.0
% inp file  : ..\Simple_SPP\data\MATE00ITA_R_20202220000_01D_30S_MO.20o
% inp file  : ..\Simple_SPP\data\BRDC00IGS_R_20202220000_01D_MN.rnx
% obs start : 2020/08/09 02:00:00.0
% obs start : 2020/08/09 23:59:30.0
%
% (x/y/z-ecef=WGS84,Q=1:fix,2:float,3:sbas,4:dgps,5:single,6:ppp,ns=# of satellites)
%  GPST                      x-ecef(m)      y-ecef(m)      z-ecef(m)   Q  ns   sdx(m)   sdy(m)   sdz(m)  sdxy(m)  sdyz(m)  sdzx(m) age(s)  ratio)
2020/08/09 02:00:00.000   4646821.1230   1391077.3294   4134295.4189   5  11   0.1055   0.0079   0.0386   0.0041   0.0041   0.0550   0.00    0.0
2020/08/09 02:00:30.000   4646731.5089   1391112.2600   4134259.9503   5  11   0.1047   0.0078   0.0394   0.0039   0.0042   0.0550   0.00    0.0
2020/08/09 02:01:00.000   4646641.3703   1391147.7041   4134222.8136   5  11   0.1039   0.0077   0.0401   0.0037   0.0043   0.0549   0.00    0.0
2020/08/09 02:01:30.000   4646550.5458   1391183.0141   4134183.0236   5  11   0.1030   0.0076   0.0408   0.0035   0.0044   0.0548   0.00    0.0
2020/08/09 02:02:00.000   4646459.7260   1391218.5240   4134141.1011   5  11   0.1021   0.0074   0.0413   0.0033   0.0045   0.0546   0.00    0.0
2020/08/09 02:02:30.000   4646369.2867   1391254.4966   4134097.5348   5  11   0.1011   0.0073   0.0418   0.0032   0.0045   0.0543   0.00    0.0
2020/08/09 02:03:00.000   4646369.2867   1391254.4966   4134097.5348   5  11   0.1011   0.0073   0.0418   0.0032   0.0045   0.0543   0.00    0.0
2020/08/09 02:03:30.000   4646369.2867   1391254.4966   4134097.5348   5  11   0.1011   0.0073   0.0418   0.0032   0.0045   0.0543   0.00    0.0
2020/08/09 02:04:00.000   4646369.2867   1391254.4966   4134097.5348   5  11   0.1011   0.0073   0.0418   0.0032   0.0045   0.0543   0.00    0.0
2020/08/09 02:04:30.000   4646369.2867   1391254.4966   4134097.5348   5  11   0.1011   0.0073   0.0418   0.0032   0.0045   0.0543   0.00    0.0
2020/08/09 02:05:00.000   4646369.2867   1391254.4966   4134097.5348   5  11   0.1011   0.0073   0.0418   0.0032   0.0045   0.0543   0.00    0.0
2020/08/09 02:05:30.000   4646369.2867   1391254.4966   4134097.5348   5  11   0.1011   0.0073   0.0418   0.0032   0.0045   0.0543   0.00    0.0
2020/08/09 02:06:00.000   4646369.2867   1391254.4966   4134097.5348   5  11   0.1011   0.0073   0.0418   0.0032   0.0045   0.0543   0.00    0.0
2020/08/09 02:06:30.000   4646369.2867   1391254.4966   4134097.5348   5  11   0.1011   0.0073   0.0418   0.0032   0.0045   0.0543   0.00    0.0
2020/08/09 02:07:00.000   4646369.2867   1391254.4966   4134097.5348   5  11   0.1011   0.0073   0.0418   0.0032   0.0045   0.0543   0.00    0.0
2020/08/09 02:07:30.000   4646369.2867   1391254.4966   4134097.5348   5  11   0.1011   0.0073   0.0418   0.0032   0.0045   0.0543   0.00    0.0
2020/08/09 02:08:00.000   4646369.2867   1391254.4966   4134097.5348   5  11   0.1011   0.0073   0.0418   0.0032   0.0045   0.0543   0.00    0.0
2020/08/09 02:08:30.000   4646369.2867   1391254.4966   4134097.5348   5  11   0.1011   0.0073   0.0418   0.0032   0.0045   0.0543   0.00    0.0
2020/08/09 02:09:00.000   4646369.2867   1391254.4966   4134097.5348   5  11   0.1011   0.0073   0.0418   0.0032   0.0045   0.0543   0.00    0.0
2020/08/09 02:09:30.000   4646369.2867   1391254.4966   4134097.5348   5  11   0.1011   0.0073   0.0418   0.0032   0.0045   0.0543   0.00    0.0
2020/08/09 02:10:00.000   4646369.2867   1391254.4966   4134097.5348   5  11   0.1011   0.0073   0.0418   0.0032   0.0045   0.0543   0.00    0.0
2020/08/09 02:10:30.000   4646369.2867   1391254.4966   4134097.5348   5  11   0.1011   0.0073   0.0418   0.0032   0.0045   0.0543   0.00    0.0
2020/08/09 02:11:00.000   4646369.2867   1391254.4966   4134097.5348   5  11   0.1011   0.0073   0.0418   0.0032   0.0045   0.0543   0.00    0.0
2020/08/09 02:11:30.000   4646369.2867   1391254.4966   4134097.5348   5  11   0.1011   0.0073   0.0418   0.0032   0.0045   0.0543   0.00    0.0
2020/08/09 02:12:00.000   4646369.2867   1391254.4966   4134097.5348   5  11   0.1011   0.0073   0.0418   0.0032   0.0045   0.0543   0.00    0.0
2020/08/09 02:12:30.000   4646369.2867   1391254.4966   4134097.5348   5  11   0.1011   0.0073   0.0418   0.0032   0.0045   0.0543   0.00    0.0
2020/08/09 02:13:00.000   4644933.8347   1390248.6468   4135240.4076   5   9   0.1857   0.0651   0.0716   0.0690   0.0163   0.0845   0.00    0.0
2020/08/09 02:13:30.000   4644926.2059   1390288.6572   4135261.2097   5   9   0.1850   0.0656   0.0728   0.0690   0.0168   0.0854   0.00    0.0
2020/08/09 02:14:00.000   4644918.9868   1390329.3487   4135281.6254   5   9   0.1842   0.0661   0.0740   0.0690   0.0173   0.0863   0.00    0.0
2020/08/09 02:14:30.000   4644912.2386   1390370.6078   4135301.3591   5   9   0.1834   0.0666   0.0751   0.0691   0.0177   0.0871   0.00    0.0
2020/08/09 02:15:00.000   4644906.0435   1390412.5437   4135320.7273   5   9   0.1826   0.0671   0.0763   0.0691   0.0181   0.0878   0.00    0.0
2020/08/09 02:15:30.000   4644900.6335   1390455.3199   4135339.8166   5   9   0.1817   0.0676   0.0774   0.0690   0.0186   0.0885   0.00    0.0
2020/08/09 02:16:00.000   4644895.6422   1390498.6765   4135358.3461   5   9   0.1807   0.0680   0.0784   0.0690   0.0190   0.0892   0.00    0.0
2020/08/09 02:16:30.000   4644890.8979   1390542.4373   4135376.1825   5   9   0.1797   0.0685   0.0795   0.0690   0.0194   0.0898   0.00    0.0
2020/08/09 02:17:00.000   4644886.8438   1390586.9958   4135393.8193   5   9   0.1787   0.0690   0.0805   0.0689   0.0197   0.0904   0.00    0.0
2020/08/09 02:17:30.000   4644883.2426   1390632.2447   4135410.8786   5   9   0.1776   0.0694   0.0815   0.0688   0.0201   0.0909   0.00    0.0
2020/08/09 02:18:00.000   4644879.8609   1390677.9446   4135427.1755   5   9   0.1765   0.0699   0.0824   0.0686   0.0204   0.0914   0.00    0.0
2020/08/09 02:18:30.000   4644877.0384   1390724.4772   4135443.2331   5   9   0.1753   0.0703   0.0833   0.0685   0.0207   0.0918   0.00    0.0
2020/08/09 02:19:00.000   4644874.3873   1390771.6020   4135458.7710   5   9   0.1740   0.0708   0.0842   0.0683   0.0210   0.0922   0.00    0.0
2020/08/09 02:19:30.000   4644871.9538   1390819.0373   4135473.5792   5   9   0.1728   0.0712   0.0850   0.0681   0.0213   0.0925   0.00    0.0
2020/08/09 02:20:00.000   4644869.7061   1390866.9626   4135487.7047   5   9   0.1714   0.0716   0.0857   0.0679   0.0216   0.0927   0.00    0.0
2020/08/09 02:20:30.000   4645408.8133   1391561.9768   4135481.8595   5  10   0.1465   0.0386   0.0864   0.0397   0.0228   0.0938   0.00    0.0
2020/08/09 02:21:00.000   4645395.3836   1391611.1070   4135492.1124   5  10   0.1461   0.0390   0.0871   0.0400   0.0231   0.0940   0.00    0.0
2020/08/09 02:21:30.000   4645381.8870   1391660.3823   4135501.6259   5  10   0.1456   0.0394   0.0877   0.0404   0.0235   0.0942   0.00    0.0
2020/08/09 02:22:00.000   4645368.2164   1391709.8118   4135510.3529   5  10   0.1450   0.0398   0.0882   0.0407   0.0238   0.0943   0.00    0.0
2020/08/09 02:22:30.000   4645354.3775   1391759.3691   4135518.2299   5  10   0.1444   0.0402   0.0887   0.0410   0.0241   0.0944   0.00    0.0
2020/08/09 02:23:00.000   4645340.3867   1391808.9999   4135525.6196   5  10   0.1437   0.0406   0.0891   0.0412   0.0244   0.0944   0.00    0.0
2020/08/09 02:23:30.000   4645326.2384   1391858.6015   4135532.3556   5  10   0.1429   0.0410   0.0895   0.0415   0.0247   0.0943   0.00    0.0
2020/08/09 02:24:00.000   4645312.2292   1391908.4055   4135538.5730   5  10   0.1420   0.0414   0.0898   0.0417   0.0249   0.0942   0.00    0.0
2020/08/09 02:24:30.000   4645297.9360   1391958.1701   4135543.8131   5  10   0.1411   0.0418   0.0901   0.0419   0.0252   0.0940   0.00    0.0
2020/08/09 02:25:00.000   4645283.6670   1392008.0881   4135548.5578   5  10   0.1401   0.0422   0.0903   0.0421   0.0254   0.0938   0.00    0.0
2020/08/09 02:25:30.000   4645269.5671   1392058.2854   4135553.0344   5  10   0.1391   0.0426   0.0904   0.0422   0.0256   0.0935   0.00    0.0
2020/08/09 02:26:00.000   4645255.3422   1392108.5178   4135556.8043   5  10   0.1380   0.0429   0.0905   0.0424   0.0258   0.0931   0.00    0.0
2020/08/09 02:26:30.000   4645241.1729   1392158.7216   4135559.6919   5  10   0.1368   0.0433   0.0905   0.0425   0.0259   0.0927   0.00    0.0
2020/08/09 02:27:00.000   4645227.3764   1392209.2343   4135562.2012   5  10   0.1356   0.0437   0.0904   0.0425   0.0260   0.0922   0.00    0.0
2020/08/09 02:27:30.000   4645213.6912   1392260.0135   4135564.4905   5  10   0.1343   0.0440   0.0903   0.0426   0.0262   0.0917   0.00    0.0
2020/08/09 02:28:00.000   4645199.9495   1392310.7501   4135566.1712   5  10   0.1330   0.0444   0.0901   0.0427   0.0263   0.0911   0.00    0.0
2020/08/09 02:28:30.000   4645186.4741   1392361.6509   4135567.5057   5  10   0.1316   0.0447   0.0899   0.0427   0.0263   0.0905   0.00    0.0
2020/08/09 02:29:00.000   4645173.3207   1392412.7449   4135568.3493   5  10   0.1302   0.0450   0.0896   0.0427   0.0264   0.0898   0.00    0.0
2020/08/09 02:29:30.000   4645160.4078   1392464.0701   4135568.7486   5  10   0.1287   0.0453   0.0892   0.0426   0.0264   0.0890   0.00    0.0
2020/08/09 02:30:00.000   4645148.0055   1392515.5444   4135569.0534   5  10   0.1272   0.0457   0.0888   0.0426   0.0264   0.0882   0.00    0.0
2020/08/09 02:30:30.000   4645135.8723   1392567.1973   4135569.0893   5  10   0.1256   0.0460   0.0884   0.0425   0.0264   0.0874   0.00    0.0
2020/08/09 02:31:00.000   4645124.1428   1392619.1559   4135568.9224   5  10   0.1240   0.0463   0.0878   0.0424   0.0264   0.0865   0.00    0.0
2020/08/09 02:31:30.000   4645112.6729   1392671.3268   4135568.0873   5  10   0.1224   0.0466   0.0873   0.0423   0.0264   0.0856   0.00    0.0
2020/08/09 02:32:00.000   4645101.6868   1392723.6816   4135567.4391   5  10   0.1207   0.0469   0.0866   0.0422   0.0263   0.0847   0.00    0.0
2020/08/09 02:32:30.000   4645091.1527   1392776.3678   4135566.9087   5  10   0.1190   0.0472   0.0860   0.0421   0.0262   0.0837   0.00    0.0
2020/08/09 02:33:00.000   4645081.0765   1392829.3884   4135566.1217   5  10   0.1173   0.0474   0.0852   0.0419   0.0261   0.0826   0.00    0.0
2020/08/09 02:33:30.000   4645071.4563   1392882.6940   4135565.1341   5  10   0.1155   0.0477   0.0845   0.0417   0.0260   0.0816   0.00    0.0
2020/08/09 02:34:00.000   4645062.3075   1392936.2282   4135564.0159   5  10   0.1137   0.0480   0.0837   0.0415   0.0259   0.0805   0.00    0.0
2020/08/09 02:34:30.000   4645053.9300   1392990.0602   4135563.1811   5  10   0.1119   0.0482   0.0828   0.0413   0.0257   0.0794   0.00    0.0
2020/08/09 02:35:00.000   4645046.0400   1393044.1394   4135562.3517   5  10   0.1101   0.0485   0.0819   0.0411   0.0255   0.0782   0.00    0.0
2020/08/09 02:35:30.000   4645038.8704   1393098.5460   4135561.6831   5  10   0.1083   0.0487   0.0810   0.0409   0.0254   0.0770   0.00    0.0
2020/08/09 02:36:00.000   4645031.9376   1393153.2848   4135560.7924   5  10   0.1065   0.0490   0.0800   0.0406   0.0252   0.0759   0.00    0.0
2020/08/09 02:36:30.000   4645025.8605   1393208.4971   4135560.2857   5  10   0.1046   0.0492   0.0791   0.0404   0.0250   0.0747   0.00    0.0
2020/08/09 02:37:00.000   4645020.3308   1393264.0083   4135559.8388   5  10   0.1028   0.0494   0.0780   0.0401   0.0248   0.0734   0.00    0.0
2020/08/09 02:37:30.000   4645015.3464   1393319.8808   4135559.6096   5  10   0.1009   0.0497   0.0770   0.0398   0.0245   0.0722   0.00    0.0
2020/08/09 02:38:00.000   4645011.3716   1393376.2068   4135559.7131   5  10   0.0991   0.0499   0.0759   0.0395   0.0243   0.0710   0.00    0.0
2020/08/09 02:38:30.000   4645007.7488   1393432.7942   4135559.8817   5  10   0.0972   0.0501   0.0748   0.0392   0.0240   0.0697   0.00    0.0
2020/08/09 02:39:00.000   4645005.1633   1393489.7466   4135560.6344   5  10   0.0954   0.0503   0.0737   0.0389   0.0238   0.0685   0.00    0.0
2020/08/09 02:39:30.000   4645003.1021   1393547.0352   4135561.5488   5  10   0.0936   0.0505   0.0726   0.0386   0.0235   0.0672   0.00    0.0
2020/08/09 02:40:00.000   4645001.6448   1393604.6371   4135562.5173   5  10   0.0917   0.0507   0.0715   0.0383   0.0232   0.0660   0.00    0.0
2020/08/09 02:40:30.000   4645000.7437   1393662.7620   4135563.6810   5  10   0.0899   0.0509   0.0703   0.0379   0.0230   0.0647   0.00    0.0
2020/08/09 02:41:00.000   4645000.6186   1393721.4212   4135565.4379   5  10   0.0881   0.0511   0.0692   0.0376   0.0227   0.0635   0.00    0.0
2020/08/09 02:41:30.000   4645001.3603   1393780.4162   4135567.7070   5  10   0.0863   0.0513   0.0680   0.0373   0.0224   0.0622   0.00    0.0
2020/08/09 02:42:00.000   4645002.7366   1393839.7761   4135570.4113   5  10   0.0845   0.0515   0.0668   0.0369   0.0221   0.0610   0.00    0.0
2020/08/09 02:42:30.000   4645004.6201   1393899.5135   4135573.1709   5  10   0.0827   0.0517   0.0656   0.0366   0.0218   0.0598   0.00    0.0
2020/08/09 02:43:00.000   4645007.2460   1393959.6354   4135576.4687   5  10   0.0809   0.0519   0.0644   0.0362   0.0215   0.0585   0.00    0.0
2020/08/09 02:43:30.000   4645010.5200   1394020.1891   4135580.2361   5  10   0.0792   0.0521   0.0632   0.0359   0.0211   0.0573   0.00    0.0
2020/08/09 02:44:00.000   4645014.5375   1394081.1870   4135584.4331   5  10   0.0775   0.0523   0.0620   0.0355   0.0208   0.0561   0.00    0.0
2020/08/09 02:44:30.000   4645018.9746   1394142.6153   4135588.8759   5  10   0.0757   0.0524   0.0608   0.0352   0.0205   0.0549   0.00    0.0
2020/08/09 02:45:00.000   4645023.9493   1394204.4013   4135593.4970   5  10   0.0740   0.0526   0.0596   0.0348   0.0202   0.0538   0.00    0.0
2020/08/09 02:45:30.000   4645029.7183   1394266.6583   4135598.7517   5  10   0.0724   0.0528   0.0584   0.0345   0.0199   0.0526   0.00    0.0
2020/08/09 02:46:00.000   4645036.2626   1394329.3704   4135604.8580   5  10   0.0707   0.0530   0.0572   0.0341   0.0195   0.0515   0.00    0.0
2020/08/09 02:46:30.000   4645043.0084   1394392.3605   4135611.1718   5  10   0.0691   0.0531   0.0560   0.0337   0.0192   0.0503   0.00    0.0
2020/08/09 02:47:00.000   4645050.4280   1394455.7555   4135617.9374   5  10   0.0674   0.0533   0.0549   0.0334   0.0189   0.0492   0.00    0.0
2020/08/09 02:47:30.000   4645058.3148   1394519.5193   4135624.9410   5  10   0.0658   0.0535   0.0537   0.0330   0.0186   0.0481   0.00    0.0
2020/08/09 02:48:00.000   4645066.6599   1394583.6515   4135632.5067   5  10   0.0642   0.0536   0.0525   0.0327   0.0183   0.0470   0.00    0.0
2020/08/09 02:48:30.000   4645075.8630   1394648.2250   4135640.6256   5  10   0.0627   0.0538   0.0514   0.0323   0.0179   0.0460   0.00    0.0
2020/08/09 02:49:00.000   4645085.4888   1394713.2272   4135649.1312   5  10   0.0611   0.0540   0.0502   0.0320   0.0176   0.0449   0.00    0.0
2020/08/09 02:49:30.000   4645095.6351   1394778.5970   4135658.1355   5  10   0.0596   0.0541   0.0491   0.0316   0.0173   0.0439   0.00    0.0
2020/08/09 02:50:00.000   4645106.3473   1394844.3306   4135667.5840   5  10   0.0581   0.0543   0.0480   0.0313   0.0170   0.0429   0.00    0.0
2020/08/09 02:50:30.000   4645117.5409   1394910.4147   4135677.4138   5  10   0.0566   0.0545   0.0468   0.0309   0.0167   0.0419   0.00    0.0
2020/08/09 02:51:00.000   4645128.9980   1394976.8183   4135687.7096   5  10   0.0552   0.0546   0.0457   0.0306   0.0164   0.0409   0.00    0.0
2020/08/09 02:51:30.000   4645141.1235   1395043.5907   4135698.6447   5  10   0.0537   0.0548   0.0446   0.0302   0.0161   0.0400   0.00    0.0
2020/08/09 02:52:00.000   4645153.6008   1395110.7502   4135710.0405   5  10   0.0523   0.0549   0.0436   0.0299   0.0158   0.0391   0.00    0.0
2020/08/09 02:52:30.000   4645166.6027   1395178.2523   4135721.9033   5  10   0.0509   0.0551   0.0425   0.0295   0.0155   0.0381   0.00    0.0
2020/08/09 02:53:00.000   4645180.2271   1395246.1547   4135734.4667   5  10   0.0495   0.0552   0.0415   0.0292   0.0152   0.0373   0.00    0.0
2020/08/09 02:53:30.000   4645194.4195   1395314.3747   4135747.4761   5  10   0.0481   0.0554   0.0404   0.0288   0.0149   0.0364   0.00    0.0
2020/08/09 02:54:00.000   4645208.6691   1395382.7235   4135760.7157   5  10   0.0468   0.0556   0.0394   0.0285   0.0146   0.0355   0.00    0.0
2020/08/09 02:54:30.000   4645223.5635   1395451.5625   4135774.6711   5  10   0.0455   0.0557   0.0384   0.0282   0.0143   0.0347   0.00    0.0
2020/08/09 02:55:00.000   4645239.0435   1395520.8745   4135789.2061   5  10   0.0442   0.0559   0.0374   0.0278   0.0140   0.0339   0.00    0.0
2020/08/09 02:55:30.000   4645255.1596   1395590.5202   4135804.2156   5  10   0.0429   0.0560   0.0364   0.0275   0.0137   0.0331   0.00    0.0
2020/08/09 02:56:00.000   4645271.8728   1395660.4868   4135819.7186   5  10   0.0417   0.0562   0.0355   0.0272   0.0135   0.0324   0.00    0.0
2020/08/09 02:56:30.000   4645289.1697   1395730.7975   4135835.8289   5  10   0.0404   0.0563   0.0345   0.0268   0.0132   0.0316   0.00    0.0
2020/08/09 02:57:00.000   4645307.2308   1395801.5253   4135852.5662   5  10   0.0392   0.0565   0.0336   0.0265   0.0129   0.0309   0.00    0.0
2020/08/09 02:57:30.000   4645325.9893   1395872.5557   4135869.8078   5  10   0.0381   0.0566   0.0327   0.0262   0.0127   0.0302   0.00    0.0
2020/08/09 02:58:00.000   4645345.8925   1395944.0446   4135888.0453   5  10   0.0369   0.0568   0.0318   0.0259   0.0124   0.0296   0.00    0.0
2020/08/09 02:58:30.000   4645367.1133   1396015.9917   4135906.9685   5  10   0.0359   0.0570   0.0310   0.0256   0.0122   0.0289   0.00    0.0
2020/08/09 02:59:00.000   4645389.9115   1396088.4748   4135926.8012   5  10   0.0348   0.0571   0.0301   0.0253   0.0119   0.0283   0.00    0.0
2020/08/09 02:59:30.000   4645414.7150   1396161.6566   4135947.3165   5  10   0.0339   0.0573   0.0293   0.0250   0.0117   0.0277   0.00    0.0
2020/08/09 03:00:00.000   4645442.0867   1396235.5982   4135968.7480   5  10   0.0330   0.0574   0.0285   0.0248   0.0115   0.0272   0.00    0.0
2020/08/09 03:00:30.000   4645473.0799   1396310.6548   4135991.7244   5  10   0.0322   0.0576   0.0277   0.0246   0.0113   0.0267   0.00    0.0
2020/08/09 03:01:00.000   4645508.2952   1396386.9804   4136016.1378   5  10   0.0315   0.0578   0.0269   0.0244   0.0111   0.0262   0.00    0.0
2020/08/09 03:01:30.000   4649129.3127   1397372.6397   4136973.9276   5   9   0.1420   0.0651   0.0338   0.0523   0.0182   0.0547   0.00    0.0
2020/08/09 03:02:00.000   4649118.1407   1397444.6729   4136975.2593   5   9   0.1400   0.0653   0.0328   0.0520   0.0179   0.0536   0.00    0.0
2020/08/09 03:02:30.000   4649108.0524   1397517.0260   4136977.5026   5   9   0.1381   0.0655   0.0318   0.0517   0.0176   0.0525   0.00    0.0
2020/08/09 03:03:00.000   4649099.5158   1397589.8747   4136981.1451   5   9   0.1362   0.0657   0.0309   0.0514   0.0173   0.0514   0.00    0.0
2020/08/09 03:03:30.000   4649963.4279   1397977.4111   4138672.4353   5   8   0.2078   0.0754   0.3056   0.0776   0.0684   0.1927   0.00    0.0
2020/08/09 03:04:00.000   4649904.5365   1398033.2694   4138587.0302   5   8   0.2059   0.0757   0.3086   0.0774   0.0687   0.1926   0.00    0.0
2020/08/09 03:04:30.000   4649844.7176   1398088.5546   4138497.3746   5   8   0.2040   0.0760   0.3115   0.0772   0.0689   0.1925   0.00    0.0
2020/08/09 03:05:00.000   4649784.1493   1398143.3071   4138403.4628   5   8   0.2021   0.0762   0.3144   0.0770   0.0692   0.1923   0.00    0.0
2020/08/09 03:05:30.000   4649723.0096   1398197.4535   4138305.3927   5   8   0.2001   0.0765   0.3173   0.0768   0.0694   0.1921   0.00    0.0
2020/08/09 03:06:00.000   4649661.0336   1398251.1064   4138202.9629   5   8   0.1981   0.0768   0.3201   0.0765   0.0696   0.1918   0.00    0.0
2020/08/09 03:06:30.000   4649598.5055   1398304.2407   4138096.2905   5   8   0.1961   0.0770   0.3229   0.0762   0.0698   0.1915   0.00    0.0
2020/08/09 03:07:00.000   4649535.6030   1398357.0282   4137985.5246   5   8   0.1940   0.0772   0.3257   0.0759   0.0700   0.1912   0.00    0.0
2020/08/09 03:07:30.000   4649472.1448   1398409.2883   4137870.3545   5   8   0.1920   0.0775   0.3284   0.0756   0.0702   0.1908   0.00    0.0
2020/08/09 03:08:00.000   4649408.1776   1398461.0707   4137750.7600   5   8   0.1899   0.0777   0.3311   0.0753   0.0703   0.1903   0.00    0.0
2020/08/09 03:08:30.000   4649343.8540   1398512.4019   4137626.8907   5   8   0.1878   0.0779   0.3337   0.0750   0.0704   0.1898   0.00    0.0
2020/08/09 03:09:00.000   4649279.2842   1398563.4317   4137498.9058   5   8   0.1856   0.0781   0.3362   0.0746   0.0705   0.1892   0.00    0.0
2020/08/09 03:09:30.000   4649214.6557   1398613.9777   4137366.7850   5   8   0.1835   0.0783   0.3387   0.0743   0.0705   0.1886   0.00    0.0
2020/08/09 03:10:00.000   4649150.0450   1398664.1763   4137230.4760   5   8   0.1813   0.0785   0.3412   0.0739   0.0706   0.1879   0.00    0.0
2020/08/09 03:10:30.000   4649085.4853   1398713.9868   4137090.1680   5   8   0.1791   0.0787   0.3435   0.0735   0.0706   0.1872   0.00    0.0
2020/08/09 03:11:00.000   4649021.1293   1398763.5578   4136945.8949   5   8   0.1769   0.0789   0.3458   0.0731   0.0706   0.1864   0.00    0.0
2020/08/09 03:11:30.000   4648957.0276   1398812.8626   4136797.7049   5   8   0.1747   0.0791   0.3481   0.0727   0.0705   0.1855   0.00    0.0
2020/08/09 03:12:00.000   4648893.2914   1398861.9286   4136645.5765   5   8   0.1724   0.0792   0.3502   0.0722   0.0705   0.1846   0.00    0.0
2020/08/09 03:12:30.000   4648829.8680   1398910.7558   4136489.7073   5   8   0.1702   0.0794   0.3523   0.0718   0.0704   0.1837   0.00    0.0
2020/08/09 03:13:00.000   4648767.3939   1398959.5385   4136330.4069   5   8   0.1679   0.0795   0.3543   0.0713   0.0702   0.1826   0.00    0.0
2020/08/09 03:13:30.000   4648705.4645   1399008.1969   4136167.5763   5   8   0.1656   0.0797   0.3562   0.0708   0.0701   0.1816   0.00    0.0
2020/08/09 03:14:00.000   4648644.3705   1399056.7126   4136001.3378   5   8   0.1633   0.0798   0.3580   0.0704   0.0699   0.1804   0.00    0.0
2020/08/09 03:14:30.000   4648584.3261   1399105.1509   4135831.8220   5   8   0.1610   0.0799   0.3597   0.0699   0.0697   0.1792   0.00    0.0
2020/08/09 03:15:00.000   4648525.1980   1399153.4433   4135659.2213   5   8   0.1587   0.0801   0.3613   0.0693   0.0695   0.1780   0.00    0.0
2020/08/09 03:15:30.000   4648467.2463   1399201.8658   4135483.7387   5   8   0.1563   0.0802   0.3628   0.0688   0.0692   0.1767   0.00    0.0
2020/08/09 03:16:00.000   4648410.5577   1399250.4009   4135305.6130   5   8   0.1540   0.0803   0.3642   0.0683   0.0689   0.1753   0.00    0.0
2020/08/09 03:16:30.000   4648355.2271   1399299.0497   4135124.7427   5   8   0.1516   0.0804   0.3656   0.0677   0.0686   0.1739   0.00    0.0
2020/08/09 03:17:00.000   4648301.5788   1399348.0148   4134941.6464   5   8   0.1493   0.0805   0.3667   0.0672   0.0683   0.1724   0.00    0.0
2020/08/09 03:17:30.000   4648249.4507   1399397.0933   4134756.2971   5   8   0.1469   0.0806   0.3678   0.0666   0.0679   0.1709   0.00    0.0
2020/08/09 03:18:00.000   4648199.1622   1399446.4686   4134569.0323   5   8   0.1445   0.0806   0.3688   0.0660   0.0675   0.1693   0.00    0.0
2020/08/09 03:18:30.000   4648150.6922   1399496.1058   4134379.9724   5   8   0.1421   0.0807   0.3696   0.0654   0.0671   0.1676   0.00    0.0
2020/08/09 03:19:00.000   4648104.3153   1399546.0383   4134189.4513   5   8   0.1398   0.0808   0.3704   0.0648   0.0666   0.1659   0.00    0.0
2020/08/09 03:19:30.000   4648060.1180   1399596.4179   4133997.7204   5   8   0.1374   0.0808   0.3710   0.0642   0.0661   0.1642   0.00    0.0
2020/08/09 03:20:00.000   4648018.5000   1399647.3196   4133805.2147   5   8   0.1350   0.0809   0.3714   0.0636   0.0656   0.1624   0.00    0.0
2020/08/09 03:20:30.000   4647979.2208   1399698.6748   4133611.9546   5   8   0.1326   0.0809   0.3718   0.0630   0.0651   0.1605   0.00    0.0
2020/08/09 03:21:00.000   4647942.5955   1399750.6621   4133418.2422   5   8   0.1302   0.0809   0.3720   0.0623   0.0645   0.1586   0.00    0.0
2020/08/09 03:21:30.000   4647908.7151   1399803.1934   4133224.4958   5   8   0.1278   0.0810   0.3721   0.0617   0.0639   0.1566   0.00    0.0
2020/08/09 03:22:00.000   4647877.6449   1399856.4213   4133030.8554   5   8   0.1255   0.0810   0.3721   0.0611   0.0633   0.1546   0.00    0.0
2020/08/09 03:22:30.000   4647849.4549   1399910.3119   4132837.6188   5   8   0.1231   0.0810   0.3719   0.0604   0.0626   0.1526   0.00    0.0
2020/08/09 03:23:00.000   4647824.2171   1399964.9261   4132644.9830   5   8   0.1208   0.0810   0.3716   0.0598   0.0619   0.1505   0.00    0.0
2020/08/09 03:23:30.000   4647801.9382   1400020.3255   4132453.0964   5   8   0.1184   0.0811   0.3712   0.0591   0.0612   0.1483   0.00    0.0
2020/08/09 03:24:00.000   4647782.7764   1400076.5289   4132262.4893   5   8   0.1161   0.0811   0.3706   0.0584   0.0605   0.1462   0.00    0.0
2020/08/09 03:24:30.000   4647766.9837   1400133.5619   4132073.4885   5   8   0.1137   0.0811   0.3699   0.0578   0.0598   0.1440   0.00    0.0
2020/08/09 03:25:00.000   4644245.7528   1395829.8758   4128403.2308   5   9   0.0679   0.0139   0.3266   0.0031   0.0054   0.0986   0.00    0.0
2020/08/09 03:25:30.000   4644298.4551   1395866.5678   4128316.1926   5   9   0.0678   0.0142   0.3286   0.0039   0.0067   0.0989   0.00    0.0
2020/08/09 03:26:00.000   4644354.2838   1395902.9314   4128233.7876   5   9   0.0675   0.0145   0.3304   0.0047   0.0079   0.0991   0.00    0.0
2020/08/09 03:26:30.000   4644413.5807   1395939.5383   4128156.5775   5   9   0.0673   0.0149   0.3320   0.0055   0.0091   0.0992   0.00    0.0
2020/08/09 03:27:00.000   4644476.5039   1395975.9870   4128084.8221   5   9   0.0670   0.0152   0.3334   0.0063   0.0104   0.0992   0.00    0.0
2020/08/09 03:27:30.000   4647746.7894   1400495.1117   4130988.1769   5   8   0.1000   0.0810   0.3631   0.0538   0.0549   0.1300   0.00    0.0
2020/08/09 03:28:00.000   4647756.1372   1400558.7744   4130817.7047   5   8   0.0978   0.0809   0.3615   0.0531   0.0540   0.1276   0.00    0.0
2020/08/09 03:28:30.000   4647769.2965   1400623.4572   4130651.0362   5   8   0.0956   0.0809   0.3598   0.0525   0.0531   0.1251   0.00    0.0
2020/08/09 03:29:00.000   4637171.3365   1398370.9847   4122393.7826   5   7   0.3738   0.0944   0.5214   0.1131   0.0990   0.3366   0.00    0.0
2020/08/09 03:29:30.000   4636785.5563   1398341.3149   4121863.8311   5   7   0.3721   0.0945   0.5221   0.1127   0.0986   0.3360   0.00    0.0
2020/08/09 03:30:00.000   4636400.1259   1398311.8372   4121332.4325   5   7   0.3703   0.0945   0.5226   0.1123   0.0982   0.3353   0.00    0.0
2020/08/09 03:30:30.000   4636015.2380   1398282.5041   4120800.1253   5   7   0.3684   0.0946   0.5230   0.1119   0.0978   0.3344   0.00    0.0
2020/08/09 03:31:00.000   4635631.4256   1398253.5736   4120267.5482   5   7   0.3664   0.0946   0.5231   0.1115   0.0973   0.3335   0.00    0.0
2020/08/09 03:31:30.000   4635248.8705   1398224.9595   4119735.2108   5   7   0.3644   0.0946   0.5230   0.1110   0.0968   0.3325   0.00    0.0
2020/08/09 03:32:00.000   4634868.1001   1398197.0197   4119203.8448   5   7   0.3623   0.0947   0.5227   0.1105   0.0962   0.3313   0.00    0.0
2020/08/09 03:32:30.000   4634489.2606   1398169.6967   4118673.9599   5   7   0.3601   0.0947   0.5222   0.1100   0.0956   0.3300   0.00    0.0
2020/08/09 03:33:00.000   4634112.7965   1398143.0181   4118146.1536   5   7   0.3579   0.0947   0.5216   0.1094   0.0950   0.3286   0.00    0.0
2020/08/09 03:33:30.000   4633738.9706   1398117.1838   4117621.0520   5   7   0.3556   0.0947   0.5207   0.1089   0.0943   0.3271   0.00    0.0
2020/08/09 03:34:00.000   4633368.1850   1398092.3013   4117099.2852   5   7   0.3533   0.0947   0.5196   0.1083   0.0936   0.3256   0.00    0.0
2020/08/09 03:34:30.000   4633000.4817   1398068.3558   4116581.3094   5   7   0.3509   0.0946   0.5184   0.1076   0.0929   0.3239   0.00    0.0
2020/08/09 03:35:00.000   4632636.3665   1398045.4681   4116067.6346   5   7   0.3484   0.0946   0.5169   0.1070   0.0921   0.3221   0.00    0.0
2020/08/09 03:35:30.000   4632276.2134   1398023.7806   4115558.9335   5   7   0.3459   0.0946   0.5153   0.1064   0.0913   0.3202   0.00    0.0
2020/08/09 03:36:00.000   4631920.0198   1398003.3627   4115055.6310   5   7   0.3433   0.0945   0.5135   0.1057   0.0905   0.3182   0.00    0.0
2020/08/09 03:36:30.000   4631568.1630   1397984.1513   4114558.2671   5   7   0.3407   0.0944   0.5115   0.1050   0.0897   0.3161   0.00    0.0
2020/08/09 03:37:00.000   4631220.7879   1397966.3529   4114067.1946   5   7   0.3380   0.0944   0.5093   0.1043   0.0888   0.3139   0.00    0.0
2020/08/09 03:37:30.000   4630878.1166   1397949.9347   4113582.8823   5   7   0.3353   0.0943   0.5069   0.1035   0.0879   0.3116   0.00    0.0
2020/08/09 03:38:00.000   4630540.3680   1397934.9512   4113105.8687   5   7   0.3326   0.0942   0.5044   0.1028   0.0869   0.3093   0.00    0.0
2020/08/09 03:38:30.000   4630207.7279   1397921.4171   4112636.5074   5   7   0.3298   0.0941   0.5018   0.1020   0.0860   0.3069   0.00    0.0
2020/08/09 03:39:00.000   4629880.3221   1397909.3801   4112175.2612   5   7   0.3270   0.0940   0.4989   0.1013   0.0850   0.3044   0.00    0.0
2020/08/09 03:39:30.000   4629558.4557   1397898.8219   4111722.3294   5   7   0.3241   0.0939   0.4960   0.1005   0.0840   0.3018   0.00    0.0
2020/08/09 03:40:00.000   4629242.3639   1397889.9964   4111278.2718   5   7   0.3212   0.0938   0.4928   0.0997   0.0830   0.2992   0.00    0.0
2020/08/09 03:40:30.000   4628931.6902   1397882.7251   4110843.2119   5   7   0.3183   0.0937   0.4896   0.0989   0.0819   0.2965   0.00    0.0
2020/08/09 03:41:00.000   4628626.8758   1397877.0008   4110417.4183   5   7   0.3153   0.0936   0.4862   0.0980   0.0809   0.2938   0.00    0.0
2020/08/09 03:41:30.000   4628327.8788   1397872.9538   4110001.1662   5   7   0.3123   0.0934   0.4827   0.0972   0.0798   0.2910   0.00    0.0
2020/08/09 03:42:00.000   4628034.9155   1397870.5078   4109594.8160   5   7   0.3094   0.0933   0.4790   0.0964   0.0787   0.2881   0.00    0.0
2020/08/09 03:42:30.000   4627747.9716   1397869.6450   4109198.3187   5   7   0.3063   0.0931   0.4753   0.0955   0.0776   0.2852   0.00    0.0
2020/08/09 03:43:00.000   4627467.1774   1397870.4361   4108812.0908   5   7   0.3033   0.0930   0.4714   0.0947   0.0765   0.2823   0.00    0.0
2020/08/09 03:43:30.000   4627192.3183   1397872.7921   4108436.1085   5   7   0.3003   0.0928   0.4675   0.0938   0.0754   0.2793   0.00    0.0
2020/08/09 03:44:00.000   4626923.5156   1397876.6939   4108070.5941   5   7   0.2972   0.0927   0.4634   0.0929   0.0743   0.2763   0.00    0.0
2020/08/09 03:44:30.000   4626660.6658   1397882.1447   4107715.4255   5   7   0.2941   0.0925   0.4593   0.0921   0.0732   0.2732   0.00    0.0
2020/08/09 03:45:00.000   4626403.9418   1397889.0573   4107370.8645   5   7   0.2911   0.0924   0.4550   0.0912   0.0720   0.2702   0.00    0.0
2020/08/09 03:45:30.000   4626153.2308   1397897.5340   4107036.9145   5   7   0.2880   0.0922   0.4508   0.0903   0.0709   0.2671   0.00    0.0
2020/08/09 03:46:00.000   4625908.4698   1397907.3906   4106713.5914   5   7   0.2849   0.0920   0.4464   0.0894   0.0698   0.2640   0.00    0.0
2020/08/09 03:46:30.000   4625669.6600   1397918.7485   4106400.8160   5   7   0.2818   0.0918   0.4420   0.0885   0.0686   0.2608   0.00    0.0
2020/08/09 03:47:00.000   4625436.9402   1397931.5657   4106098.9526   5   7   0.2788   0.0916   0.4375   0.0877   0.0675   0.2577   0.00    0.0
2020/08/09 03:47:30.000   4625209.9201   1397945.8012   4105807.5864   5   7   0.2757   0.0915   0.4329   0.0868   0.0663   0.2545   0.00    0.0
2020/08/09 03:48:00.000   4624988.6912   1397961.3504   4105526.6962   5   7   0.2726   0.0913   0.4284   0.0859   0.0652   0.2514   0.00    0.0
2020/08/09 03:48:30.000   4624773.0768   1397978.1347   4105256.1999   5   7   0.2696   0.0911   0.4237   0.0850   0.0641   0.2482   0.00    0.0
2020/08/09 03:49:00.000   4624562.8009   1397996.0425   4104995.8907   5   7   0.2665   0.0909   0.4191   0.0841   0.0629   0.2450   0.00    0.0
2020/08/09 03:49:30.000   4624358.0983   1398015.1212   4104746.0227   5   7   0.2635   0.0907   0.4144   0.0832   0.0618   0.2419   0.00    0.0
2020/08/09 03:50:00.000   4624158.7952   1398035.3281   4104506.1986   5   7   0.2604   0.0905   0.4097   0.0823   0.0607   0.2387   0.00    0.0
2020/08/09 03:50:30.000   4623964.9514   1398056.7364   4104276.5667   5   7   0.2574   0.0903   0.4050   0.0815   0.0596   0.2356   0.00    0.0
2020/08/09 03:51:00.000   4623776.0414   1398079.1051   4104056.5372   5   7   0.2544   0.0901   0.4002   0.0806   0.0585   0.2324   0.00    0.0
2020/08/09 03:51:30.000   4623591.9103   1398102.3430   4103846.1920   5   7   0.2514   0.0898   0.3955   0.0797   0.0574   0.2293   0.00    0.0
2020/08/09 03:52:00.000   4623412.5173   1398126.4190   4103645.2633   5   7   0.2485   0.0896   0.3907   0.0788   0.0563   0.2262   0.00    0.0
2020/08/09 03:52:30.000   4623238.0147   1398151.3976   4103453.7958   5   7   0.2455   0.0894   0.3860   0.0780   0.0552   0.2231   0.00    0.0
2020/08/09 03:53:00.000   4623068.1613   1398177.2044   4103271.4551   5   7   0.2426   0.0892   0.3812   0.0771   0.0542   0.2201   0.00    0.0
2020/08/09 03:53:30.000   4622902.6329   1398203.7697   4103097.9559   5   7   0.2397   0.0890   0.3765   0.0763   0.0531   0.2170   0.00    0.0
2020/08/09 03:54:00.000   4622741.3779   1398230.9958   4102933.2849   5   7   0.2368   0.0887   0.3718   0.0754   0.0521   0.2140   0.00    0.0
2020/08/09 03:54:30.000   4622584.5443   1398258.8753   4102777.2401   5   7   0.2339   0.0885   0.3670   0.0745   0.0510   0.2110   0.00    0.0
2020/08/09 03:55:00.000   4622431.6567   1398287.3328   4102629.5329   5   7   0.2311   0.0883   0.3623   0.0737   0.0500   0.2080   0.00    0.0
2020/08/09 03:55:30.000   4622282.7025   1398316.2337   4102489.8729   5   7   0.2282   0.0881   0.3577   0.0729   0.0490   0.2050   0.00    0.0
2020/08/09 03:56:00.000   4622137.3412   1398345.6187   4102358.1161   5   7   0.2254   0.0878   0.3530   0.0720   0.0480   0.2021   0.00    0.0
2020/08/09 03:56:30.000   4621995.7998   1398375.5102   4102234.1554   5   7   0.2227   0.0876   0.3484   0.0712   0.0470   0.1992   0.00    0.0
2020/08/09 03:57:00.000   4621857.6693   1398405.7169   4102117.5258   5   7   0.2199   0.0873   0.3438   0.0704   0.0461   0.1963   0.00    0.0
2020/08/09 03:57:30.000   4621723.2159   1398436.3599   4102008.4062   5   7   0.2172   0.0871   0.3392   0.0696   0.0451   0.1935   0.00    0.0
2020/08/09 03:58:00.000   4621591.7067   1398467.1553   4101906.3135   5   7   0.2145   0.0868   0.3347   0.0688   0.0442   0.1907   0.00    0.0
2020/08/09 03:58:30.000   4621463.4442   1398498.2301   4101811.0864   5   7   0.2118   0.0866   0.3302   0.0679   0.0433   0.1879   0.00    0.0
2020/08/09 03:59:00.000   4621463.4442   1398498.2301   4101811.0864   5   7   0.2118   0.0866   0.3302   0.0679   0.0433   0.1879   0.00    0.0
2020/08/09 03:59:30.000   4621463.4442   1398498.2301   4101811.0864   5   7   0.2118   0.0866   0.3302   0.0679   0.0433   0.1879   0.00    0.0
2020/08/09 04:00:00.000   4641958.2965   1393048.3512   4133295.4785   5   7   0.2028   0.0735   0.3164   0.0596   0.0334   0.1781   0.00    0.0
2020/08/09 04:00:30.000   4641958.2389   1393048.2040   4133295.4378   5   7   0.2003   0.0733   0.3121   0.0589   0.0327   0.1755   0.00    0.0
2020/08/09 04:01:00.000   4641958.0250   1393048.0566   4133295.4420   5   7   0.1978   0.0730   0.3078   0.0583   0.0319   0.1730   0.00    0.0
2020/08/09 04:01:30.000   4641958.0876   1393047.9549   4133295.5518   5   7   0.1954   0.0728   0.3036   0.0576   0.0312   0.1705   0.00    0.0
2020/08/09 04:02:00.000   4641958.2537   1393048.0195   4133295.6610   5   7   0.1930   0.0726   0.2995   0.0570   0.0304   0.1681   0.00    0.0
2020/08/09 04:02:30.000   4641958.2151   1393048.0113   4133295.7505   5   7   0.1906   0.0724   0.2953   0.0563   0.0297   0.1657   0.00    0.0
2020/08/09 04:03:00.000   4641956.6835   1393045.9540   4133295.9545   5   8   0.1676   0.0424   0.2911   0.0309   0.0312   0.1651   0.00    0.0
2020/08/09 04:03:30.000   4641956.8065   1393046.0459   4133296.0284   5   8   0.1666   0.0426   0.2869   0.0312   0.0312   0.1633   0.00    0.0
2020/08/09 04:04:00.000   4641956.8376   1393046.0720   4133296.1041   5   8   0.1655   0.0428   0.2828   0.0316   0.0312   0.1615   0.00    0.0
2020/08/09 04:04:30.000   4641956.8962   1393045.9598   4133296.2428   5   8   0.1644   0.0430   0.2787   0.0319   0.0312   0.1596   0.00    0.0
2020/08/09 04:05:00.000   4641957.0707   1393045.8158   4133296.3316   5   8   0.1632   0.0433   0.2746   0.0322   0.0311   0.1577   0.00    0.0
2020/08/09 04:05:30.000   4641957.1469   1393045.8600   4133296.4148   5   8   0.1621   0.0435   0.2705   0.0325   0.0311   0.1558   0.00    0.0
2020/08/09 04:06:00.000   4641957.3281   1393045.9199   4133296.6227   5   8   0.1609   0.0437   0.2665   0.0327   0.0310   0.1539   0.00    0.0
2020/08/09 04:06:30.000   4641957.4902   1393045.9222   4133296.7936   5   8   0.1597   0.0439   0.2625   0.0330   0.0309   0.1520   0.00    0.0
2020/08/09 04:07:00.000   4641957.5954   1393045.9329   4133296.8164   5   8   0.1584   0.0441   0.2585   0.0332   0.0308   0.1501   0.00    0.0
2020/08/09 04:07:30.000   4641957.8008   1393045.9189   4133296.8799   5   8   0.1572   0.0443   0.2546   0.0334   0.0307   0.1482   0.00    0.0
2020/08/09 04:08:00.000   4641958.0376   1393045.9285   4133296.9779   5   8   0.1559   0.0445   0.2507   0.0336   0.0306   0.1463   0.00    0.0
2020/08/09 04:08:30.000   4641957.9533   1393045.9412   4133296.9105   5   8   0.1546   0.0447   0.2469   0.0338   0.0304   0.1444   0.00    0.0
2020/08/09 04:09:00.000   4641957.9021   1393045.9582   4133296.8156   5   8   0.1532   0.0449   0.2430   0.0340   0.0303   0.1425   0.00    0.0
2020/08/09 04:09:30.000   4641958.0020   1393045.9307   4133297.0000   5   8   0.1519   0.0450   0.2393   0.0342   0.0301   0.1406   0.00    0.0
2020/08/09 04:10:00.000   4641958.1890   1393045.8755   4133297.0770   5   8   0.1505   0.0452   0.2355   0.0343   0.0300   0.1387   0.00    0.0
2020/08/09 04:10:30.000   4641958.2535   1393045.8588   4133297.1634   5   8   0.1491   0.0454   0.2319   0.0344   0.0298   0.1368   0.00    0.0
2020/08/09 04:11:00.000   4641958.5012   1393045.9397   4133297.4293   5   8   0.1477   0.0455   0.2282   0.0346   0.0296   0.1349   0.00    0.0
2020/08/09 04:11:30.000   4641958.7744   1393045.9124   4133297.6662   5   8   0.1463   0.0457   0.2246   0.0347   0.0294   0.1330   0.00    0.0
2020/08/09 04:12:00.000   4641958.8561   1393045.9343   4133297.7396   5   8   0.1449   0.0458   0.2211   0.0348   0.0292   0.1312   0.00    0.0
2020/08/09 04:12:30.000   4641958.9049   1393045.9850   4133297.7206   5   8   0.1434   0.0460   0.2176   0.0348   0.0290   0.1293   0.00    0.0
2020/08/09 04:13:00.000   4641958.8970   1393046.0407   4133297.7938   5   8   0.1419   0.0461   0.2141   0.0349   0.0288   0.1275   0.00    0.0
2020/08/09 04:13:30.000   4641959.0017   1393046.0537   4133297.8141   5   8   0.1405   0.0462   0.2107   0.0349   0.0286   0.1257   0.00    0.0
2020/08/09 04:14:00.000   4641959.3105   1393046.1304   4133297.8581   5   8   0.1390   0.0463   0.2074   0.0350   0.0284   0.1238   0.00    0.0
2020/08/09 04:14:30.000   4641959.4492   1393046.1613   4133297.8468   5   8   0.1375   0.0465   0.2041   0.0350   0.0281   0.1220   0.00    0.0
2020/08/09 04:15:00.000   4641959.6568   1393046.1809   4133297.9646   5   8   0.1360   0.0466   0.2008   0.0350   0.0279   0.1203   0.00    0.0
2020/08/09 04:15:30.000   4641959.8521   1393046.2034   4133298.1327   5   8   0.1345   0.0467   0.1976   0.0350   0.0277   0.1185   0.00    0.0
2020/08/09 04:16:00.000   4641985.4815   1393052.1481   4133355.5437   5   9   0.0993   0.0449   0.0253   0.0271   0.0098   0.0413   0.00    0.0
2020/08/09 04:16:30.000   4641983.4549   1393051.6089   4133351.1848   5   9   0.0989   0.0451   0.0257   0.0274   0.0100   0.0416   0.00    0.0
2020/08/09 04:17:00.000   4641981.4254   1393051.0896   4133346.7998   5   9   0.0985   0.0452   0.0262   0.0276   0.0102   0.0419   0.00    0.0
2020/08/09 04:17:30.000   4641979.6351   1393050.7757   4133342.8796   5   9   0.0981   0.0453   0.0269   0.0278   0.0104   0.0423   0.00    0.0
2020/08/09 04:18:00.000   4641978.1732   1393050.4745   4133339.3236   5   9   0.0977   0.0455   0.0276   0.0280   0.0106   0.0427   0.00    0.0
2020/08/09 04:18:30.000   4641976.8528   1393050.1640   4133335.8775   5   9   0.0973   0.0456   0.0283   0.0281   0.0108   0.0431   0.00    0.0
2020/08/09 04:19:00.000   4641975.5140   1393049.9355   4133332.7907   5   9   0.0968   0.0457   0.0291   0.0283   0.0110   0.0436   0.00    0.0
2020/08/09 04:19:30.000   4641974.1437   1393049.6034   4133329.8810   5   9   0.0964   0.0458   0.0299   0.0285   0.0112   0.0440   0.00    0.0
2020/08/09 04:20:00.000   4641973.1292   1393049.3270   4133327.3875   5   9   0.0959   0.0459   0.0308   0.0286   0.0114   0.0444   0.00    0.0
2020/08/09 04:20:30.000   4641972.2058   1393049.1354   4133325.1094   5   9   0.0955   0.0460   0.0317   0.0288   0.0116   0.0449   0.00    0.0
2020/08/09 04:21:00.000   4641971.3221   1393048.9001   4133323.0853   5   9   0.0950   0.0461   0.0326   0.0289   0.0118   0.0453   0.00    0.0
2020/08/09 04:21:30.000   4641970.6864   1393048.7522   4133321.2919   5   9   0.0944   0.0462   0.0335   0.0290   0.0120   0.0457   0.00    0.0
2020/08/09 04:22:00.000   4641970.1045   1393048.5653   4133319.8070   5   9   0.0939   0.0463   0.0344   0.0291   0.0122   0.0461   0.00    0.0
2020/08/09 04:22:30.000   4641969.5747   1393048.2916   4133317.8847   5   9   0.0933   0.0463   0.0353   0.0292   0.0124   0.0466   0.00    0.0
2020/08/09 04:23:00.000   4641969.1667   1393048.0770   4133316.4400   5   9   0.0928   0.0464   0.0362   0.0293   0.0126   0.0470   0.00    0.0
2020/08/09 04:23:30.000   4641968.7052   1393048.0424   4133315.2057   5   9   0.0922   0.0464   0.0372   0.0294   0.0128   0.0473   0.00    0.0
2020/08/09 04:24:00.000   4641968.4236   1393048.1074   4133314.0021   5   9   0.0915   0.0465   0.0381   0.0294   0.0130   0.0477   0.00    0.0
2020/08/09 04:24:30.000   4641968.1408   1393048.0527   4133312.8857   5   9   0.0909   0.0465   0.0390   0.0295   0.0132   0.0481   0.00    0.0
2020/08/09 04:25:00.000   4641967.8596   1393047.9422   4133311.7742   5   9   0.0902   0.0465   0.0399   0.0295   0.0134   0.0484   0.00    0.0
2020/08/09 04:25:30.000   4641967.4475   1393047.8811   4133310.7326   5   9   0.0895   0.0466   0.0409   0.0295   0.0136   0.0487   0.00    0.0
2020/08/09 04:26:00.000   4641966.9324   1393047.7240   4133309.6422   5   9   0.0888   0.0466   0.0418   0.0295   0.0137   0.0490   0.00    0.0
2020/08/09 04:26:30.000   4641966.9460   1393047.6310   4133309.1315   5   9   0.0881   0.0466   0.0427   0.0295   0.0139   0.0493   0.00    0.0
2020/08/09 04:27:00.000   4641966.9497   1393047.5578   4133308.3498   5   9   0.0874   0.0466   0.0436   0.0295   0.0140   0.0496   0.00    0.0
2020/08/09 04:27:30.000   4641966.7283   1393047.6031   4133307.5809   5   9   0.0866   0.0466   0.0445   0.0294   0.0142   0.0499   0.00    0.0
2020/08/09 04:28:00.000   4641966.4510   1393047.5700   4133306.7558   5   9   0.0858   0.0465   0.0454   0.0294   0.0143   0.0501   0.00    0.0
2020/08/09 04:28:30.000   4641966.4327   1393047.4979   4133306.0657   5   9   0.0850   0.0465   0.0462   0.0293   0.0144   0.0503   0.00    0.0
2020/08/09 04:29:00.000   4641966.5455   1393047.4623   4133305.6382   5   9   0.0842   0.0465   0.0471   0.0292   0.0146   0.0505   0.00    0.0
2020/08/09 04:29:30.000   4641966.8344   1393047.5015   4133305.3576   5   9   0.0833   0.0464   0.0479   0.0291   0.0147   0.0507   0.00    0.0
2020/08/09 04:30:00.000   4641966.7635   1393047.5393   4133304.8583   5   9   0.0824   0.0464   0.0487   0.0290   0.0148   0.0508   0.00    0.0
2020/08/09 04:30:30.000   4641990.9165   1393020.6506   4133327.3466   5  10   0.0702   0.0326   0.0394   0.0414   0.0267   0.0402   0.00    0.0
2020/08/09 04:31:00.000   4641988.6528   1393022.7243   4133325.4260   5  10   0.0698   0.0326   0.0400   0.0410   0.0269   0.0405   0.00    0.0
2020/08/09 04:31:30.000   4641986.7011   1393024.5335   4133323.6398   5  10   0.0693   0.0325   0.0406   0.0406   0.0270   0.0407   0.00    0.0
2020/08/09 04:32:00.000   4641985.5627   1393026.1117   4133322.2167   5  10   0.0689   0.0324   0.0412   0.0401   0.0271   0.0410   0.00    0.0
2020/08/09 04:32:30.000   4641984.4191   1393027.3635   4133320.7245   5  10   0.0684   0.0324   0.0419   0.0396   0.0273   0.0413   0.00    0.0
2020/08/09 04:33:00.000   4641983.4272   1393028.5952   4133319.5830   5  10   0.0680   0.0323   0.0425   0.0391   0.0273   0.0415   0.00    0.0
2020/08/09 04:33:30.000   4641982.3535   1393029.6514   4133318.5509   5  10   0.0675   0.0322   0.0431   0.0386   0.0274   0.0418   0.00    0.0
2020/08/09 04:34:00.000   4641981.3025   1393030.9163   4133317.4709   5  10   0.0670   0.0321   0.0437   0.0381   0.0274   0.0420   0.00    0.0
2020/08/09 04:34:30.000   4641980.6118   1393032.0189   4133316.3800   5  10   0.0664   0.0320   0.0444   0.0376   0.0275   0.0423   0.00    0.0
2020/08/09 04:35:00.000   4641979.6884   1393032.9287   4133315.2404   5  10   0.0659   0.0319   0.0450   0.0371   0.0275   0.0425   0.00    0.0
2020/08/09 04:35:30.000   4641979.6884   1393032.9287   4133315.2404   5  10   0.0659   0.0319   0.0450   0.0371   0.0275   0.0425   0.00    0.0
2020/08/09 04:36:00.000   4641979.6884   1393032.9287   4133315.2404   5  10   0.0659   0.0319   0.0450   0.0371   0.0275   0.0425   0.00    0.0
2020/08/09 04:36:30.000   4641979.6884   1393032.9287   4133315.2404   5  10   0.0659   0.0319   0.0450   0.0371   0.0275   0.0425   0.00    0.0
2020/08/09 04:37:00.000   4641979.6884   1393032.9287   4133315.2404   5  10   0.0659   0.0319   0.0450   0.0371   0.0275   0.0425   0.00    0.0
2020/08/09 04:37:30.000   4641979.6884   1393032.9287   4133315.2404   5  10   0.0659   0.0319   0.0450   0.0371   0.0275   0.0425   0.00    0.0
2020/08/09 04:38:00.000   4641979.6884   1393032.9287   4133315.2404   5  10   0.0659   0.0319   0.0450   0.0371   0.0275   0.0425   0.00    0.0
2020/08/09 04:38:30.000   4641979.6884   1393032.9287   4133315.2404   5  10   0.0659   0.0319   0.0450   0.0371   0.0275   0.0425   0.00    0.0
2020/08/09 04:39:00.000   4641979.6884   1393032.9287   4133315.2404   5  10   0.0659   0.0319   0.0450   0.0371   0.0275   0.0425   0.00    0.0
2020/08/09 04:39:30.000   4641979.6884   1393032.9287   4133315.2404   5  10   0.0659   0.0319   0.0450   0.0371   0.0275   0.0425   0.00    0.0
2020/08/09 04:40:00.000   4641979.6884   1393032.9287   4133315.2404   5  10   0.0659   0.0319   0.0450   0.0371   0.0275   0.0425   0.00    0.0
2020/08/09 04:40:30.000   4641979.6884   1393032.9287   4133315.2404   5  10   0.0659   0.0319   0.0450   0.0371   0.0275   0.0425   0.00    0.0
2020/08/09 04:41:00.000   4641979.6884   1393032.9287   4133315.2404   5  10   0.0659   0.0319   0.0450   0.0371   0.0275   0.0425   0.00    0.0
2020/08/09 04:41:30.000   4641979.6884   1393032.9287   4133315.2404   5  10   0.0659   0.0319   0.0450   0.0371   0.0275   0.0425   0.00    0.0
2020/08/09 04:42:00.000   4641979.6884   1393032.9287   4133315.2404   5  10   0.0659   0.0319   0.0450   0.0371   0.0275   0.0425   0.00    0.0
2020/08/09 04:42:30.000   4641979.6884   1393032.9287   4133315.2404   5  10   0.0659   0.0319   0.0450   0.0371   0.0275   0.0425   0.00    0.0
2020/08/09 04:43:00.000   4641979.6884   1393032.9287   4133315.2404   5  10   0.0659   0.0319   0.0450   0.0371   0.0275   0.0425   0.00    0.0
2020/08/09 04:43:30.000   4641979.6884   1393032.9287   4133315.2404   5  10   0.0659   0.0319   0.0450   0.0371   0.0275   0.0425   0.00    0.0
2020/08/09 04:44:00.000   4641979.6884   1393032.9287   4133315.2404   5  10   0.0659   0.0319   0.0450   0.0371   0.0275   0.0425   0.00    0.0
2020/08/09 04:44:30.000   4641979.6884   1393032.9287   4133315.2404   5  10   0.0659   0.0319   0.0450   0.0371   0.0275   0.0425   0.00    0.0
2020/08/09 04:45:00.000   4641979.6884   1393032.9287   4133315.2404   5  10   0.0659   0.0319   0.0450   0.0371   0.0275   0.0425   0.00    0.0
2020/08/09 04:45:30.000   4641979.6884   1393032.9287   4133315.2404   5  10   0.0659   0.0319   0.0450   0.0371   0.0275   0.0425   0.00    0.0
2020/08/09 04:46:00.000   4641979.6884   1393032.9287   4133315.2404   5  10   0.0659   0.0319   0.0450   0.0371   0.0275   0.0425   0.00    0.0
2020/08/09 04:46:30.000   4641979.6884   1393032.9287   4133315.2404   5  10   0.0659   0.0319   0.0450   0.0371   0.0275   0.0425   0.00    0.0
2020/08/09 04:47:00.000   4641979.6884   1393032.9287   4133315.2404   5  10   0.0659   0.0319   0.0450   0.0371   0.0275   0.0425   0.00    0.0
2020/08/09 04:47:30.000   4641979.6884   1393032.9287   4133315.2404   5  10   0.0659   0.0319   0.0450   0.0371   0.0275   0.0425   0.00    0.0
2020/08/09 04:48:00.000   4641979.6884   1393032.9287   4133315.2404   5  10   0.0659   0.0319   0.0450   0.0371   0.0275   0.0425   0.00    0.0
2020/08/09 04:48:30.000   4641979.6884   1393032.9287   4133315.2404   5  10   0.0659   0.0319   0.0450   0.0371   0.0275   0.0425   0.00    0.0
2020/08/09 04:49:00.000   4641979.6884   1393032.9287   4133315.2404   5  10   0.0659   0.0319   0.0450   0.0371   0.0275   0.0425   0.00    0.0
2020/08/09 04:49:30.000   4641979.6884   1393032.9287   4133315.2404   5  10   0.0659   0.0319   0.0450   0.0371   0.0275   0.0425   0.00    0.0
2020/08/09 04:50:00.000   4641979.6884   1393032.9287   4133315.2404   5  10   0.0659   0.0319   0.0450   0.0371   0.0275   0.0425   0.00    0.0
2020/08/09 04:50:30.000   4641979.6884   1393032.9287   4133315.2404   5  10   0.0659   0.0319   0.0450   0.0371   0.0275   0.0425   0.00    0.0
2020/08/09 04:51:00.000   4641979.6884   1393032.9287   4133315.2404   5  10   0.0659   0.0319   0.0450   0.0371   0.0275   0.0425   0.00    0.0
2020/08/09 04:51:30.000   4641979.6884   1393032.9287   4133315.2404   5  10   0.0659   0.0319   0.0450   0.0371   0.0275   0.0425   0.00    0.0
2020/08/09 04:52:00.000   4641979.6884   1393032.9287   4133315.2404   5  10   0.0659   0.0319   0.0450   0.0371   0.0275   0.0425   0.00    0.0
2020/08/09 04:52:30.000   4641979.6884   1393032.9287   4133315.2404   5  10   0.0659   0.0319   0.0450   0.0371   0.0275   0.0425   0.00    0.0
2020/08/09 04:53:00.000   4641979.6884   1393032.9287   4133315.2404   5  10   0.0659   0.0319   0.0450   0.0371   0.0275   0.0425   0.00    0.0
2020/08/09 04:53:30.000   4641979.6884   1393032.9287   4133315.2404   5  10   0.0659   0.0319   0.0450   0.0371   0.0275   0.0425   0.00    0.0
2020/08/09 04:54:00.000   4641979.6884   1393032.9287   4133315.2404   5  10   0.0659   0.0319   0.0450   0.0371   0.0275   0.0425   0.00    0.0
2020/08/09 04:54:30.000   4641974.2166   1393053.5855   4133303.4841   5  10   0.0735   0.0115   0.0535   0.0135   0.0132   0.0397   0.00    0.0
2020/08/09 04:55:00.000   4641973.4976   1393053.5749   4133303.4690   5  10   0.0748   0.0118   0.0536   0.0138   0.0133   0.0403   0.00    0.0
2020/08/09 04:55:30.000   4641972.8912   1393053.4421   4133303.2654   5  10   0.0761   0.0120   0.0536   0.0142   0.0134   0.0409   0.00    0.0
2020/08/09 04:56:00.000   4641972.0083   1393053.1962   4133302.9298   5  10   0.0775   0.0122   0.0536   0.0146   0.0135   0.0416   0.00    0.0
2020/08/09 04:56:30.000   4641971.4935   1393052.9355   4133302.8357   5  10   0.0788   0.0125   0.0536   0.0150   0.0136   0.0422   0.00    0.0
2020/08/09 04:57:00.000   4641971.0233   1393052.7763   4133302.8974   5  10   0.0801   0.0127   0.0536   0.0153   0.0136   0.0427   0.00    0.0
2020/08/09 04:57:30.000   4641970.5172   1393052.6845   4133302.9087   5  10   0.0814   0.0129   0.0535   0.0157   0.0137   0.0433   0.00    0.0
2020/08/09 04:58:00.000   4641970.1901   1393052.4327   4133303.0504   5  10   0.0828   0.0131   0.0534   0.0161   0.0138   0.0439   0.00    0.0
2020/08/09 04:58:30.000   4641969.8051   1393052.2657   4133303.1026   5  10   0.0841   0.0133   0.0533   0.0164   0.0139   0.0444   0.00    0.0
2020/08/09 04:59:00.000   4641969.3476   1393052.0771   4133303.2523   5  10   0.0854   0.0135   0.0531   0.0168   0.0140   0.0449   0.00    0.0
2020/08/09 04:59:30.000   4641968.5355   1393051.7928   4133303.3339   5  10   0.0867   0.0137   0.0529   0.0172   0.0141   0.0454   0.00    0.0
2020/08/09 05:00:00.000   4641968.0981   1393051.6468   4133303.3982   5  10   0.0880   0.0139   0.0527   0.0176   0.0141   0.0459   0.00    0.0
2020/08/09 05:00:30.000   4641967.7200   1393051.6208   4133303.6080   5  10   0.0893   0.0141   0.0525   0.0179   0.0142   0.0464   0.00    0.0
2020/08/09 05:01:00.000   4641967.4080   1393051.5277   4133303.8969   5  10   0.0906   0.0143   0.0522   0.0183   0.0143   0.0468   0.00    0.0
2020/08/09 05:01:30.000   4641966.9727   1393051.3551   4133304.1033   5  10   0.0918   0.0145   0.0520   0.0187   0.0143   0.0472   0.00    0.0
2020/08/09 05:02:00.000   4641966.5767   1393051.1307   4133304.3701   5  10   0.0931   0.0146   0.0516   0.0190   0.0144   0.0476   0.00    0.0
2020/08/09 05:02:30.000   4641966.1689   1393050.9109   4133304.5466   5  10   0.0943   0.0148   0.0513   0.0194   0.0145   0.0480   0.00    0.0
2020/08/09 05:03:00.000   4641965.8816   1393050.8381   4133304.5931   5  10   0.0955   0.0150   0.0509   0.0197   0.0145   0.0484   0.00    0.0
2020/08/09 05:03:30.000   4641965.8816   1393050.8381   4133304.5931   5  10   0.0955   0.0150   0.0509   0.0197   0.0145   0.0484   0.00    0.0
2020/08/09 05:04:00.000   4641965.8816   1393050.8381   4133304.5931   5  10   0.0955   0.0150   0.0509   0.0197   0.0145   0.0484   0.00    0.0
2020/08/09 05:04:30.000   4641965.8816   1393050.8381   4133304.5931   5  10   0.0955   0.0150   0.0509   0.0197   0.0145   0.0484   0.00    0.0
2020/08/09 05:05:00.000   4641965.8816   1393050.8381   4133304.5931   5  10   0.0955   0.0150   0.0509   0.0197   0.0145   0.0484   0.00    0.0
2020/08/09 05:05:30.000   4641965.8816   1393050.8381   4133304.5931   5  10   0.0955   0.0150   0.0509   0.0197   0.0145   0.0484   0.00    0.0
2020/08/09 05:06:00.000   4641965.8816   1393050.8381   4133304.5931   5  10   0.0955   0.0150   0.0509   0.0197   0.0145   0.0484   0.00    0.0
2020/08/09 05:06:30.000   4641965.8816   1393050.8381   4133304.5931   5  10   0.0955   0.0150   0.0509   0.0197   0.0145   0.0484   0.00    0.0
2020/08/09 05:07:00.000   4641965.8816   1393050.8381   4133304.5931   5  10   0.0955   0.0150   0.0509   0.0197   0.0145   0.0484   0.00    0.0
2020/08/09 05:07:30.000   4641965.8816   1393050.8381   4133304.5931   5  10   0.0955   0.0150   0.0509   0.0197   0.0145   0.0484   0.00    0.0
2020/08/09 05:08:00.000   4641965.8816   1393050.8381   4133304.5931   5  10   0.0955   0.0150   0.0509   0.0197   0.0145   0.0484   0.00    0.0
2020/08/09 05:08:30.000   4641965.8816   1393050.8381   4133304.5931   5  10   0.0955   0.0150   0.0509   0.0197   0.0145   0.0484   0.00    0.0
2020/08/09 05:09:00.000   4641965.8816   1393050.8381   4133304.5931   5  10   0.0955   0.0150   0.0509   0.0197   0.0145   0.0484   0.00    0.0
2020/08/09 05:09:30.000   4641965.8816   1393050.8381   4133304.5931   5  10   0.0955   0.0150   0.0509   0.0197   0.0145   0.0484   0.00    0.0
2020/08/09 05:10:00.000   4641965.8816   1393050.8381   4133304.5931   5  10   0.0955   0.0150   0.0509   0.0197   0.0145   0.0484   0.00    0.0
2020/08/09 05:10:30.000   4641965.8816   1393050.8381   4133304.5931   5  10   0.0955   0.0150   0.0509   0.0197   0.0145   0.0484   0.00    0.0
2020/08/09 05:11:00.000   4641965.8816   1393050.8381   4133304.5931   5  10   0.0955   0.0150   0.0509   0.0197   0.0145   0.0484   0.00    0.0
2020/08/09 05:11:30.000   4641965.8816   1393050.8381   4133304.5931   5  10   0.0955   0.0150   0.0509   0.0197   0.0145   0.0484   0.00    0.0
2020/08/09 05:12:00.000   4641965.8816   1393050.8381   4133304.5931   5  10   0.0955   0.0150   0.0509   0.0197   0.0145   0.0484   0.00    0.0
2020/08/09 05:12:30.000   4641965.8816   1393050.8381   4133304.5931   5  10   0.0955   0.0150   0.0509   0.0197   0.0145   0.0484   0.00    0.0
2020/08/09 05:13:00.000   4641965.8816   1393050.8381   4133304.5931   5  10   0.0955   0.0150   0.0509   0.0197   0.0145   0.0484   0.00    0.0
2020/08/09 05:13:30.000   4641965.8816   1393050.8381   4133304.5931   5  10   0.0955   0.0150   0.0509   0.0197   0.0145   0.0484   0.00    0.0
2020/08/09 05:14:00.000   4641965.8816   1393050.8381   4133304.5931   5  10   0.0955   0.0150   0.0509   0.0197   0.0145   0.0484   0.00    0.0
2020/08/09 05:14:30.000   4641965.8816   1393050.8381   4133304.5931   5  10   0.0955   0.0150   0.0509   0.0197   0.0145   0.0484   0.00    0.0
2020/08/09 05:15:00.000   4641965.8816   1393050.8381   4133304.5931   5  10   0.0955   0.0150   0.0509   0.0197   0.0145   0.0484   0.00    0.0
2020/08/09 05:15:30.000   4641965.8816   1393050.8381   4133304.5931   5  10   0.0955   0.0150   0.0509   0.0197   0.0145   0.0484   0.00    0.0
2020/08/09 05:16:00.000   4641965.8816   1393050.8381   4133304.5931   5  10   0.0955   0.0150   0.0509   0.0197   0.0145   0.0484   0.00    0.0
2020/08/09 05:16:30.000   4641965.8816   1393050.8381   4133304.5931   5  10   0.0955   0.0150   0.0509   0.0197   0.0145   0.0484   0.00    0.0
2020/08/09 05:17:00.000   4641965.8816   1393050.8381   4133304.5931   5  10   0.0955   0.0150   0.0509   0.0197   0.0145   0.0484   0.00    0.0
2020/08/09 05:17:30.000   4641965.8816   1393050.8381   4133304.5931   5  10   0.0955   0.0150   0.0509   0.0197   0.0145   0.0484   0.00    0.0
2020/08/09 05:18:00.000   4641965.8816   1393050.8381   4133304.5931   5  10   0.0955   0.0150   0.0509   0.0197   0.0145   0.0484   0.00    0.0
2020/08/09 05:18:30.000   4641965.8816   1393050.8381   4133304.5931   5  10   0.0955   0.0150   0.0509   0.0197   0.0145   0.0484   0.00    0.0
2020/08/09 05:19:00.000   4641965.8816   1393050.8381   4133304.5931   5  10   0.0955   0.0150   0.0509   0.0197   0.0145   0.0484   0.00    0.0
2020/08/09 05:19:30.000   4641965.8816   1393050.8381   4133304.5931   5  10   0.0955   0.0150   0.0509   0.0197   0.0145   0.0484   0.00    0.0
2020/08/09 05:20:00.000   4641965.8816   1393050.8381   4133304.5931   5  10   0.0955   0.0150   0.0509   0.0197   0.0145   0.0484   0.00    0.0
2020/08/09 05:20:30.000   4641965.8816   1393050.8381   4133304.5931   5  10   0.0955   0.0150   0.0509   0.0197   0.0145   0.0484   0.00    0.0
2020/08/09 05:21:00.000   4641959.9310   1393052.9876   4133302.7361   5   9   0.1215   0.0213   0.0693   0.0256   0.0015   0.0550   0.00    0.0
2020/08/09 05:21:30.000   4641959.9571   1393053.0994   4133303.2774   5   9   0.1216   0.0215   0.0689   0.0256   0.0011   0.0548   0.00    0.0
2020/08/09 05:22:00.000   4641960.0423   1393053.1196   4133303.2575   5   9   0.1217   0.0216   0.0685   0.0256   0.0008   0.0546   0.00    0.0
2020/08/09 05:22:30.000   4641960.3050   1393053.4264   4133303.7397   5   9   0.1217   0.0217   0.0680   0.0256   0.0004   0.0543   0.00    0.0
2020/08/09 05:23:00.000   4641960.4013   1393053.5549   4133304.2594   5   9   0.1217   0.0218   0.0675   0.0255   0.0000   0.0541   0.00    0.0
2020/08/09 05:23:30.000   4641960.3109   1393053.6410   4133304.6720   5   9   0.1217   0.0219   0.0670   0.0255  -0.0003   0.0538   0.00    0.0
2020/08/09 05:24:00.000   4641960.3670   1393053.7246   4133305.1400   5   9   0.1216   0.0220   0.0665   0.0254  -0.0007   0.0535   0.00    0.0
2020/08/09 05:24:30.000   4641960.4903   1393053.9694   4133305.3962   5   9   0.1215   0.0222   0.0660   0.0253  -0.0011   0.0532   0.00    0.0
